[
    {
        "name": "Loviisa",
        "country": "Finland",
        "reactor_type": "2 VVER-440",
        "electrical_power_MW": 1010,
        "lat": 60.3714,
        "lon": 26.3469
    },
    {
        "name": "Olkiluoto",
        "country": "Finland",
        "reactor_type": "2 BWR + 1 EPR",
        "electrical_power_MW": 3560,
        "lat": 61.2392,
        "lon": 21.4384
    },
    {
        "name": "Forsmark",
        "country": "Sweden",
        "reactor_type": "3 BWR",
        "electrical_power_MW": 3320,
        "lat": 60.4025,
        "lon": 18.1711
    },
    {
        "name": "Oskarshamn",
        "country": "Sweden",
        "reactor_type": "BWR",
        "electrical_power_MW": 1400,
        "lat": 57.4128,
        "lon": 16.6742
    },
    {
        "name": "Ringhals",
        "country": "Sweden",
        "reactor_type": "2 PWR",
        "electrical_power_MW": 2240,
        "lat": 57.2583,
        "lon": 12.1058
    },
    {
        "name": "Barsebäck (closed)",
        "country": "Sweden",
        "reactor_type": "2 BWR (closed)",
        "electrical_power_MW": 0,
        "lat": 55.75,
        "lon": 12.9
    },
    {
        "name": "Leibstadt",
        "country": "Switzerland",
        "reactor_type": "BWR",
        "electrical_power_MW": 1220,
        "lat": 47.6014,
        "lon": 8.1836
    },
    {
        "name": "Beznau",
        "country": "Switzerland",
        "reactor_type": "2 PWR",
        "electrical_power_MW": 730,
        "lat": 47.5236,
        "lon": 8.1158
    },
    {
        "name": "Gösgen",
        "country": "Switzerland",
        "reactor_type": "PWR",
        "electrical_power_MW": 1060,
        "lat": 47.3664,
        "lon": 7.9661
    },
    {
        "name": "Mühleberg (closed)",
        "country": "Switzerland",
        "reactor_type": "BWR (closed)",
        "electrical_power_MW": 0,
        "lat": 46.9667,
        "lon": 7.2667
    },
    {
        "name": "Cattenom",
        "country": "France",
        "reactor_type": "4 PWR",
        "electrical_power_MW": 5448,
        "lat": 49.4,
        "lon": 6.2167
    },
    {
        "name": "Flamanville",
        "country": "France",
        "reactor_type": "2 PWR + 1 EPR",
        "electrical_power_MW": 4200,
        "lat": 49.5382,
        "lon": -1.8803
    },
    {
        "name": "Paluel",
        "country": "France",
        "reactor_type": "4 PWR",
        "electrical_power_MW": 5320,
        "lat": 49.8667,
        "lon": 0.6333
    },
    {
        "name": "Gravelines",
        "country": "France",
        "reactor_type": "6 PWR",
        "electrical_power_MW": 5460,
        "lat": 51.0167,
        "lon": 2.1333
    },
    {
        "name": "Blayais",
        "country": "France",
        "reactor_type": "4 PWR",
        "electrical_power_MW": 3640,
        "lat": 45.25,
        "lon": -0.6833
    },
    {
        "name": "Bugey",
        "country": "France",
        "reactor_type": "4 PWR",
        "electrical_power_MW": 3564,
        "lat": 45.7981,
        "lon": 5.27
    },
    {
        "name": "Chinon",
        "country": "France",
        "reactor_type": "4 PWR",
        "electrical_power_MW": 3584,
        "lat": 47.2333,
        "lon": 0.1667
    },
    {
        "name": "Civaux",
        "country": "France",
        "reactor_type": "2 PWR",
        "electrical_power_MW": 2990,
        "lat": 46.4597,
        "lon": 0.6514
    },
    {
        "name": "Cruas",
        "country": "France",
        "reactor_type": "4 PWR",
        "electrical_power_MW": 3660,
        "lat": 44.6333,
        "lon": 4.7667
    },
    {
        "name": "Dampierre",
        "country": "France",
        "reactor_type": "4 PWR",
        "electrical_power_MW": 3568,
        "lat": 47.7333,
        "lon": 2.5167
    },
    {
        "name": "Golfech",
        "country": "France",
        "reactor_type": "2 PWR",
        "electrical_power_MW": 2620,
        "lat": 44.1,
        "lon": 0.85
    },
    {
        "name": "Nogent-sur-Seine",
        "country": "France",
        "reactor_type": "2 PWR",
        "electrical_power_MW": 2620,
        "lat": 48.5167,
        "lon": 3.5167
    },
    {
        "name": "Penly",
        "country": "France",
        "reactor_type": "2 PWR",
        "electrical_power_MW": 2660,
        "lat": 49.9833,
        "lon": 1.2167
    },
    {
        "name": "Saint-Alban",
        "country": "France",
        "reactor_type": "2 PWR",
        "electrical_power_MW": 2660,
        "lat": 45.4333,
        "lon": 4.8167
    },
    {
        "name": "Saint-Laurent",
        "country": "France",
        "reactor_type": "2 PWR",
        "electrical_power_MW": 1830,
        "lat": 47.7167,
        "lon": 1.5667
    },
    {
        "name": "Tricastin",
        "country": "France",
        "reactor_type": "4 PWR",
        "electrical_power_MW": 3660,
        "lat": 44.3333,
        "lon": 4.7333
    },
    {
        "name": "Brokdorf (closed)",
        "country": "Germany",
        "reactor_type": "PWR (closed)",
        "electrical_power_MW": 0,
        "lat": 53.8511,
        "lon": 9.3947
    },
    {
        "name": "Grohnde (closed)",
        "country": "Germany",
        "reactor_type": "PWR (closed)",
        "electrical_power_MW": 0,
        "lat": 52.0333,
        "lon": 9.3833
    },
    {
        "name": "Gundremmingen (closed)",
        "country": "Germany",
        "reactor_type": "2 BWR (closed)",
        "electrical_power_MW": 0,
        "lat": 48.5122,
        "lon": 10.4011
    },
    {
        "name": "Isar (closed)",
        "country": "Germany",
        "reactor_type": "2 PWR/BWR (closed)",
        "electrical_power_MW": 0,
        "lat": 48.6058,
        "lon": 12.2917
    },
    {
        "name": "Emsland (closed)",
        "country": "Germany",
        "reactor_type": "PWR (closed)",
        "electrical_power_MW": 0,
        "lat": 52.4742,
        "lon": 7.3231
    },
    {
        "name": "Neckarwestheim (closed)",
        "country": "Germany",
        "reactor_type": "2 PWR (closed)",
        "electrical_power_MW": 0,
        "lat": 49.0408,
        "lon": 9.1742
    },
    {
        "name": "Borssele",
        "country": "Netherlands",
        "reactor_type": "PWR",
        "electrical_power_MW": 512,
        "lat": 51.4312,
        "lon": 3.7179
    },
    {
        "name": "Doel",
        "country": "Belgium",
        "reactor_type": "4 PWR",
        "electrical_power_MW": 4017,
        "lat": 51.3253,
        "lon": 4.2628
    },
    {
        "name": "Tihange",
        "country": "Belgium",
        "reactor_type": "3 PWR",
        "electrical_power_MW": 3006,
        "lat": 50.5339,
        "lon": 5.2706
    },
    {
        "name": "Hinkley Point C",
        "country": "United Kingdom",
        "reactor_type": "2 EPR (under construction)",
        "electrical_power_MW": 3260,
        "lat": 51.2078,
        "lon": -3.1333
    },
    {
        "name": "Sizewell B",
        "country": "United Kingdom",
        "reactor_type": "PWR",
        "electrical_power_MW": 1198,
        "lat": 52.2083,
        "lon": 1.6208
    },
    {
        "name": "Torness",
        "country": "United Kingdom",
        "reactor_type": "2 AGR",
        "electrical_power_MW": 1364,
        "lat": 55.9687,
        "lon": -2.4085
    },
    {
        "name": "Heysham",
        "country": "United Kingdom",
        "reactor_type": "4 AGR",
        "electrical_power_MW": 2400,
        "lat": 54.0292,
        "lon": -2.9208
    },
    {
        "name": "Hartlepool",
        "country": "United Kingdom",
        "reactor_type": "2 AGR",
        "electrical_power_MW": 1210,
        "lat": 54.6333,
        "lon": -1.1833
    },
    {
        "name": "Dungeness B (closed)",
        "country": "United Kingdom",
        "reactor_type": "2 AGR (closed)",
        "electrical_power_MW": 0,
        "lat": 50.9167,
        "lon": 0.9667
    },
    {
        "name": "Almaraz",
        "country": "Spain",
        "reactor_type": "2 PWR",
        "electrical_power_MW": 2020,
        "lat": 39.8067,
        "lon": -5.6981
    },
    {
        "name": "Ascó",
        "country": "Spain",
        "reactor_type": "2 PWR",
        "electrical_power_MW": 2000,
        "lat": 41.2003,
        "lon": 0.5683
    },
    {
        "name": "Cofrentes",
        "country": "Spain",
        "reactor_type": "BWR",
        "electrical_power_MW": 1092,
        "lat": 39.25,
        "lon": -1.0631
    },
    {
        "name": "Vandellós II",
        "country": "Spain",
        "reactor_type": "PWR",
        "electrical_power_MW": 1088,
        "lat": 40.9514,
        "lon": 0.8667
    },
    {
        "name": "Trillo",
        "country": "Spain",
        "reactor_type": "PWR",
        "electrical_power_MW": 1066,
        "lat": 40.6872,
        "lon": -2.5872
    },
    {
        "name": "Dukovany",
        "country": "Czech Republic",
        "reactor_type": "4 VVER-440",
        "electrical_power_MW": 2040,
        "lat": 49.0883,
        "lon": 16.1478
    },
    {
        "name": "Temelín",
        "country": "Czech Republic",
        "reactor_type": "2 VVER-1000",
        "electrical_power_MW": 2160,
        "lat": 49.1967,
        "lon": 14.3742
    },
    {
        "name": "Paks",
        "country": "Hungary",
        "reactor_type": "4 VVER-440",
        "electrical_power_MW": 2000,
        "lat": 46.5736,
        "lon": 18.8561
    },
    {
        "name": "Bohunice",
        "country": "Slovakia",
        "reactor_type": "2 VVER-440",
        "electrical_power_MW": 880,
        "lat": 48.4917,
        "lon": 17.6833
    },
    {
        "name": "Mochovce",
        "country": "Slovakia",
        "reactor_type": "4 VVER-440",
        "electrical_power_MW": 1816,
        "lat": 48.2616,
        "lon": 18.4601
    },
    {
        "name": "Cernavodă",
        "country": "Romania",
        "reactor_type": "2 CANDU",
        "electrical_power_MW": 1400,
        "lat": 44.32,
        "lon": 28.0567
    },
    {
        "name": "Kozloduy",
        "country": "Bulgaria",
        "reactor_type": "2 VVER-1000",
        "electrical_power_MW": 2000,
        "lat": 43.7961,
        "lon": 23.7842
    },
    {
        "name": "Krško",
        "country": "Slovenia",
        "reactor_type": "PWR",
        "electrical_power_MW": 696,
        "lat": 45.9395,
        "lon": 15.5171
    },
    {
        "name": "Metsamor",
        "country": "Armenia",
        "reactor_type": "2 VVER-440",
        "electrical_power_MW": 800,
        "lat": 40.1807,
        "lon": 44.1477
    },
    {
        "name": "Leningrad",
        "country": "Russia",
        "reactor_type": "4 RBMK + 2 VVER-1200",
        "electrical_power_MW": 5500,
        "lat": 59.8317,
        "lon": 29.0731
    },
    {
        "name": "Kola",
        "country": "Russia",
        "reactor_type": "4 VVER-440",
        "electrical_power_MW": 1760,
        "lat": 67.4656,
        "lon": 32.4978
    },
    {
        "name": "Kalinin",
        "country": "Russia",
        "reactor_type": "4 VVER-1000",
        "electrical_power_MW": 4000,
        "lat": 57.9167,
        "lon": 36.7333
    },
    {
        "name": "Smolensk",
        "country": "Russia",
        "reactor_type": "3 RBMK",
        "electrical_power_MW": 3000,
        "lat": 54.1667,
        "lon": 33.2333
    },
    {
        "name": "Novovoronezh",
        "country": "Russia",
        "reactor_type": "2 VVER-440 + 2 VVER-1000 + 2 VVER-1200",
        "electrical_power_MW": 5760,
        "lat": 51.2833,
        "lon": 39.2167
    },
    {
        "name": "Zaporižžja",
        "country": "Ukraine",
        "reactor_type": "6 VVER-1000",
        "electrical_power_MW": 5700,
        "lat": 47.5083,
        "lon": 34.5864
    },
    {
        "name": "Rivne",
        "country": "Ukraine",
        "reactor_type": "4 VVER",
        "electrical_power_MW": 2835,
        "lat": 51.3167,
        "lon": 25.8833
    },
    {
        "name": "Hmelnytski",
        "country": "Ukraine",
        "reactor_type": "2 VVER-1000",
        "electrical_power_MW": 1900,
        "lat": 50.3,
        "lon": 26.65
    },
    {
        "name": "South Ukraine",
        "country": "Ukraine",
        "reactor_type": "3 VVER-1000",
        "electrical_power_MW": 2850,
        "lat": 47.8333,
        "lon": 31.2167
    },
    {
        "name": "Chernobyl (closed)",
        "country": "Ukraine",
        "reactor_type": "4 RBMK (closed)",
        "electrical_power_MW": 0,
        "lat": 51.3833,
        "lon": 30.0997
    },
    {
        "name": "Ignalina (closed)",
        "country": "Lithuania",
        "reactor_type": "2 RBMK (closed)",
        "electrical_power_MW": 0,
        "lat": 55.6,
        "lon": 26.5667
    },
    {
        "name": "Fukushima Daiichi (closed)",
        "country": "Japan",
        "reactor_type": "6 GE-BWR (closed)",
        "electrical_power_MW": 0,
        "lat": 37.4214,
        "lon": 141.0325
    },
    {
        "name": "Fukushima Daini",
        "country": "Japan",
        "reactor_type": "4 BWR",
        "electrical_power_MW": 4400,
        "lat": 37.3167,
        "lon": 141.0167
    },
    {
        "name": "Arkansas Nuclear One (ANO)",
        "country": "United States",
        "reactor_type": "2 PWR",
        "electrical_power_MW": 1840,
        "lat": 35.31028,
        "lon": -93.23139
    },
    {
        "name": "Beaver Valley",
        "country": "United States",
        "reactor_type": "2 PWR",
        "electrical_power_MW": 1800,
        "lat": 40.62333,
        "lon": -80.43056
    },
    {
        "name": "Braidwood",
        "country": "United States",
        "reactor_type": "2 PWR",
        "electrical_power_MW": 2330,
        "lat": 41.24361,
        "lon": -88.22917
    },
    {
        "name": "Browns Ferry",
        "country": "United States",
        "reactor_type": "3 BWR",
        "electrical_power_MW": 3300,
        "lat": 34.70389,
        "lon": -87.11861
    },
    {
        "name": "Brunswick",
        "country": "United States",
        "reactor_type": "2 BWR",
        "electrical_power_MW": 1870,
        "lat": 33.95833,
        "lon": -78.01028
    },
    {
        "name": "Byron",
        "country": "United States",
        "reactor_type": "2 PWR",
        "electrical_power_MW": 2347,
        "lat": 42.07417,
        "lon": -89.28194
    },
    {
        "name": "Callaway",
        "country": "United States",
        "reactor_type": "PWR",
        "electrical_power_MW": 1190,
        "lat": 38.76167,
        "lon": -91.78
    },
    {
        "name": "Calvert Cliffs",
        "country": "United States",
        "reactor_type": "2 PWR",
        "electrical_power_MW": 1729,
        "lat": 38.43194,
        "lon": -76.44222
    },
    {
        "name": "Catawba",
        "country": "United States",
        "reactor_type": "2 PWR",
        "electrical_power_MW": 2258,
        "lat": 35.05167,
        "lon": -81.07
    },
    {
        "name": "Clinton",
        "country": "United States",
        "reactor_type": "BWR",
        "electrical_power_MW": 1062,
        "lat": 40.17222,
        "lon": -88.835
    },
    {
        "name": "Columbia Generating Station",
        "country": "United States",
        "reactor_type": "BWR",
        "electrical_power_MW": 1207,
        "lat": 46.47111,
        "lon": -119.33389
    },
    {
        "name": "Comanche Peak",
        "country": "United States",
        "reactor_type": "2 PWR",
        "electrical_power_MW": 2400,
        "lat": 32.29833,
        "lon": -97.785
    },
    {
        "name": "Cooper",
        "country": "United States",
        "reactor_type": "BWR",
        "electrical_power_MW": 769,
        "lat": 40.36194,
        "lon": -95.64139
    },
    {
        "name": "Davis-Besse",
        "country": "United States",
        "reactor_type": "PWR",
        "electrical_power_MW": 894,
        "lat": 41.59667,
        "lon": -83.08639
    },
    {
        "name": "Diablo Canyon",
        "country": "United States",
        "reactor_type": "2 PWR",
        "electrical_power_MW": 2256,
        "lat": 35.21083,
        "lon": -120.85611
    },
    {
        "name": "Donald C. Cook",
        "country": "United States",
        "reactor_type": "2 PWR",
        "electrical_power_MW": 2191,
        "lat": 41.97528,
        "lon": -86.56583
    },
    {
        "name": "Dresden",
        "country": "United States",
        "reactor_type": "2 BWR",
        "electrical_power_MW": 1845,
        "lat": 41.38972,
        "lon": -88.26806
    },
    {
        "name": "Edwin I. Hatch",
        "country": "United States",
        "reactor_type": "2 BWR",
        "electrical_power_MW": 1755,
        "lat": 31.93417,
        "lon": -82.34389
    },
    {
        "name": "Enrico Fermi",
        "country": "United States",
        "reactor_type": "PWR",
        "electrical_power_MW": 1122,
        "lat": 41.96278,
        "lon": -83.2575
    },
    {
        "name": "Grand Gulf",
        "country": "United States",
        "reactor_type": "BWR",
        "electrical_power_MW": 1401,
        "lat": 32.00667,
        "lon": -91.04833
    },
    {
        "name": "Hope Creek",
        "country": "United States",
        "reactor_type": "BWR",
        "electrical_power_MW": 1172,
        "lat": 39.46778,
        "lon": -75.53806
    },
    {
        "name": "James A. FitzPatrick",
        "country": "United States",
        "reactor_type": "BWR",
        "electrical_power_MW": 838,
        "lat": 43.5233,
        "lon": -76.3983
    },
    {
        "name": "Joseph M. Farley",
        "country": "United States",
        "reactor_type": "2 PWR",
        "electrical_power_MW": 1755,
        "lat": 31.22306,
        "lon": -85.11167
    },
    {
        "name": "LaSalle",
        "country": "United States",
        "reactor_type": "2 BWR",
        "electrical_power_MW": 2330,
        "lat": 41.24556,
        "lon": -88.66917
    },
    {
        "name": "Limerick",
        "country": "United States",
        "reactor_type": "2 BWR",
        "electrical_power_MW": 2317,
        "lat": 40.22667,
        "lon": -75.58722
    },
    {
        "name": "McGuire",
        "country": "United States",
        "reactor_type": "2 PWR",
        "electrical_power_MW": 2316,
        "lat": 35.4325,
        "lon": -80.94833
    },
    {
        "name": "Millstone",
        "country": "United States",
        "reactor_type": "2 PWR",
        "electrical_power_MW": 2089,
        "lat": 41.31194,
        "lon": -72.16861
    },
    {
        "name": "Monticello",
        "country": "United States",
        "reactor_type": "BWR",
        "electrical_power_MW": 671,
        "lat": 45.33361,
        "lon": -93.84917
    },
    {
        "name": "Nine Mile Point",
        "country": "United States",
        "reactor_type": "2 BWR",
        "electrical_power_MW": 1757,
        "lat": 43.52083,
        "lon": -76.40694
    },
    {
        "name": "North Anna",
        "country": "United States",
        "reactor_type": "2 PWR",
        "electrical_power_MW": 1892,
        "lat": 38.06056,
        "lon": -77.78944
    },
    {
        "name": "Oconee",
        "country": "United States",
        "reactor_type": "3 PWR",
        "electrical_power_MW": 2554,
        "lat": 34.79389,
        "lon": -82.89806
    },
    {
        "name": "Palo Verde",
        "country": "United States",
        "reactor_type": "3 PWR",
        "electrical_power_MW": 3937,
        "lat": 33.38917,
        "lon": -112.865
    },
    {
        "name": "Peach Bottom",
        "country": "United States",
        "reactor_type": "2 BWR",
        "electrical_power_MW": 2627,
        "lat": 39.75833,
        "lon": -76.26806
    },
    {
        "name": "Perry",
        "country": "United States",
        "reactor_type": "BWR",
        "electrical_power_MW": 1268,
        "lat": 41.80083,
        "lon": -81.14333
    },
    {
        "name": "Point Beach",
        "country": "United States",
        "reactor_type": "2 PWR",
        "electrical_power_MW": 1198,
        "lat": 44.28111,
        "lon": -87.53667
    },
    {
        "name": "Prairie Island",
        "country": "United States",
        "reactor_type": "2 PWR",
        "electrical_power_MW": 1096,
        "lat": 44.62167,
        "lon": -92.63306
    },
    {
        "name": "Quad Cities",
        "country": "United States",
        "reactor_type": "2 BWR",
        "electrical_power_MW": 1819,
        "lat": 41.72639,
        "lon": -90.31
    },
    {
        "name": "R.E. Ginna",
        "country": "United States",
        "reactor_type": "PWR",
        "electrical_power_MW": 614,
        "lat": 43.27778,
        "lon": -77.31
    },
    {
        "name": "River Bend",
        "country": "United States",
        "reactor_type": "BWR",
        "electrical_power_MW": 994,
        "lat": 30.7567,
        "lon": -91.333
    },
    {
        "name": "Saint Lucie",
        "country": "United States",
        "reactor_type": "2 PWR",
        "electrical_power_MW": 1989,
        "lat": 27.34861,
        "lon": -80.24639
    },
    {
        "name": "Salem",
        "country": "United States",
        "reactor_type": "2 PWR",
        "electrical_power_MW": 2275,
        "lat": 39.46278,
        "lon": -75.53556
    },
    {
        "name": "Seabrook",
        "country": "United States",
        "reactor_type": "PWR",
        "electrical_power_MW": 1296,
        "lat": 42.89889,
        "lon": -70.85083
    },
    {
        "name": "Sequoyah",
        "country": "United States",
        "reactor_type": "2 PWR",
        "electrical_power_MW": 2440,
        "lat": 35.22639,
        "lon": -85.09167
    },
    {
        "name": "Shearon Harris",
        "country": "United States",
        "reactor_type": "PWR",
        "electrical_power_MW": 964,
        "lat": 35.6333,
        "lon": -78.955
    },
    {
        "name": "South Texas Project",
        "country": "United States",
        "reactor_type": "2 PWR",
        "electrical_power_MW": 2700,
        "lat": 28.79556,
        "lon": -96.04889
    },
    {
        "name": "Surry",
        "country": "United States",
        "reactor_type": "2 PWR",
        "electrical_power_MW": 1648,
        "lat": 37.16556,
        "lon": -76.69778
    },
    {
        "name": "Susquehanna",
        "country": "United States",
        "reactor_type": "2 BWR",
        "electrical_power_MW": 2683,
        "lat": 41.08889,
        "lon": -76.14889
    },
    {
        "name": "Vogtle",
        "country": "United States",
        "reactor_type": "4 PWR",
        "electrical_power_MW": 4536,
        "lat": 33.14306,
        "lon": -81.76583
    },
    {
        "name": "Watts Bar",
        "country": "United States",
        "reactor_type": "2 PWR",
        "electrical_power_MW": 2316,
        "lat": 35.60278,
        "lon": -84.78944
    },
    {
        "name": "H. B. Robinson",
        "country": "United States",
        "reactor_type": "PWR",
        "electrical_power_MW": 769,
        "lat": 34.40278,
        "lon": -80.15833
    },
    {
        "name": "Turkey Point",
        "country": "United States",
        "reactor_type": "2 PWR",
        "electrical_power_MW": 1604,
        "lat": 25.43417,
        "lon": -80.33056
    },
    {
        "name": "Waterford",
        "country": "United States",
        "reactor_type": "PWR",
        "electrical_power_MW": 1152,
        "lat": 29.99528,
        "lon": -90.47111
    },
    {
        "name": "Wolf Creek",
        "country": "United States",
        "reactor_type": "PWR",
        "electrical_power_MW": 1200,
        "lat": 38.23889,
        "lon": -95.68889
    },
    {
        "name": "Indian Point (closed)",
        "country": "United States",
        "reactor_type": "2 PWR (closed)",
        "electrical_power_MW": 0,
        "lat": 41.2695,
        "lon": -73.9527
    },
    {
        "name": "San Onofre (closed)",
        "country": "United States",
        "reactor_type": "2 PWR (closed)",
        "electrical_power_MW": 0,
        "lat": 33.3717,
        "lon": -117.5572
    },
    {
        "name": "Three Mile Island (closed)",
        "country": "United States",
        "reactor_type": "PWR (closed)",
        "electrical_power_MW": 0,
        "lat": 40.1532,
        "lon": -76.725
    },
    {
        "name": "Bruce Nuclear Generating Station",
        "country": "Canada",
        "reactor_type": "8 CANDU PHWR",
        "electrical_power_MW": 6610,
        "lat": 44.32528,
        "lon": -81.59944
    },
    {
        "name": "Darlington",
        "country": "Canada",
        "reactor_type": "4 CANDU PHWR",
        "electrical_power_MW": 3512,
        "lat": 43.87278,
        "lon": -78.71972
    },
    {
        "name": "Pickering",
        "country": "Canada",
        "reactor_type": "4 CANDU PHWR (active)",
        "electrical_power_MW": 2086,
        "lat": 43.81167,
        "lon": -79.06583
    },
    {
        "name": "Point Lepreau",
        "country": "Canada",
        "reactor_type": "CANDU PHWR",
        "electrical_power_MW": 660,
        "lat": 45.06889,
        "lon": -66.45472
    },
    {
        "name": "Gentilly-2 (closed)",
        "country": "Canada",
        "reactor_type": "CANDU PHWR (closed)",
        "electrical_power_MW": 0,
        "lat": 46.3994,
        "lon": -72.4983
    },
    {
        "name": "Nuclear Power Demonstration (closed)",
        "country": "Canada",
        "reactor_type": "CANDU prototype (closed)",
        "electrical_power_MW": 0,
        "lat": 46.18667,
        "lon": -77.65778
    },
    {
        "name": "Kursk",
        "country": "Russia",
        "reactor_type": "2 RBMK-1000 (active), 2 closed",
        "electrical_power_MW": 2000,
        "lat": 51.6764,
        "lon": 35.6064
    },
    {
        "name": "Balakovo",
        "country": "Russia",
        "reactor_type": "4 VVER-1000",
        "electrical_power_MW": 4000,
        "lat": 52.0934,
        "lon": 47.9544
    },
    {
        "name": "Rostov",
        "country": "Russia",
        "reactor_type": "4 VVER-1000",
        "electrical_power_MW": 4030,
        "lat": 47.6012,
        "lon": 42.3677
    },
    {
        "name": "Beloyarsk",
        "country": "Russia",
        "reactor_type": "BN-600 + BN-800 fast breeder",
        "electrical_power_MW": 1485,
        "lat": 56.8514,
        "lon": 61.3158
    },
    {
        "name": "Bilibino (closed)",
        "country": "Russia",
        "reactor_type": "4 EGP-6 (closed Dec 2025)",
        "electrical_power_MW": 0,
        "lat": 68.0508,
        "lon": 166.5383
    },
    {
        "name": "Genkai",
        "country": "Japan",
        "reactor_type": "2 PWR (units 3-4 operating)",
        "electrical_power_MW": 2296,
        "lat": 33.51556,
        "lon": 129.83722
    },
    {
        "name": "Hamaoka (closed)",
        "country": "Japan",
        "reactor_type": "5 BWR/ABWR (closed)",
        "electrical_power_MW": 0,
        "lat": 34.62361,
        "lon": 138.1425
    },
    {
        "name": "Higashidori",
        "country": "Japan",
        "reactor_type": "BWR (pending restart)",
        "electrical_power_MW": 0,
        "lat": 41.18806,
        "lon": 141.39028
    },
    {
        "name": "Ikata",
        "country": "Japan",
        "reactor_type": "PWR (unit 3 operating)",
        "electrical_power_MW": 890,
        "lat": 33.49083,
        "lon": 132.31139
    },
    {
        "name": "Kashiwazaki-Kariwa",
        "country": "Japan",
        "reactor_type": "7 BWR/ABWR (unit 6 operating)",
        "electrical_power_MW": 8212,
        "lat": 37.42833,
        "lon": 138.60167
    },
    {
        "name": "Mihama",
        "country": "Japan",
        "reactor_type": "3 PWR (unit 3 operating)",
        "electrical_power_MW": 826,
        "lat": 35.7025,
        "lon": 135.96333
    },
    {
        "name": "Oi",
        "country": "Japan",
        "reactor_type": "4 PWR (units 3-4 operating)",
        "electrical_power_MW": 2360,
        "lat": 35.54056,
        "lon": 135.65194
    },
    {
        "name": "Onagawa",
        "country": "Japan",
        "reactor_type": "3 BWR (unit 2 operating)",
        "electrical_power_MW": 825,
        "lat": 38.40111,
        "lon": 141.49972
    },
    {
        "name": "Sendai",
        "country": "Japan",
        "reactor_type": "2 PWR (both operating)",
        "electrical_power_MW": 1780,
        "lat": 31.83361,
        "lon": 130.18972
    },
    {
        "name": "Shika (closed)",
        "country": "Japan",
        "reactor_type": "2 BWR (pending decommission)",
        "electrical_power_MW": 0,
        "lat": 37.06111,
        "lon": 136.72639
    },
    {
        "name": "Shimane",
        "country": "Japan",
        "reactor_type": "3 BWR (pending restart)",
        "electrical_power_MW": 0,
        "lat": 35.53833,
        "lon": 132.99917
    },
    {
        "name": "Takahama",
        "country": "Japan",
        "reactor_type": "4 PWR (units 1,3,4 operating)",
        "electrical_power_MW": 3392,
        "lat": 35.52222,
        "lon": 135.50472
    },
    {
        "name": "Tokai (closed)",
        "country": "Japan",
        "reactor_type": "Magnox + BWR (decommissioned)",
        "electrical_power_MW": 0,
        "lat": 36.46639,
        "lon": 140.60667
    },
    {
        "name": "Tomari",
        "country": "Japan",
        "reactor_type": "3 PWR (pending restart)",
        "electrical_power_MW": 0,
        "lat": 43.03611,
        "lon": 140.5125
    },
    {
        "name": "Tsuruga (closed)",
        "country": "Japan",
        "reactor_type": "2 PWR (shut down, seismic concerns)",
        "electrical_power_MW": 0,
        "lat": 35.67278,
        "lon": 136.07722
    },
    {
        "name": "Kori",
        "country": "South Korea",
        "reactor_type": "3 PWR (Kori 2-4 operating, Kori 1 closed)",
        "electrical_power_MW": 2550,
        "lat": 35.3243,
        "lon": 129.2956
    },
    {
        "name": "Saeul (Shin-Kori)",
        "country": "South Korea",
        "reactor_type": "4 PWR APR-1400 (Saeul 1-4 operating)",
        "electrical_power_MW": 5600,
        "lat": 35.3271,
        "lon": 129.3017
    },
    {
        "name": "Wolsong",
        "country": "South Korea",
        "reactor_type": "4 CANDU PHWR + 2 PWR (Wolsong 2-4, Shin-Wolsong 1-2 operating)",
        "electrical_power_MW": 4716,
        "lat": 35.7148,
        "lon": 129.4766
    },
    {
        "name": "Hanbit",
        "country": "South Korea",
        "reactor_type": "6 PWR (all operating)",
        "electrical_power_MW": 5875,
        "lat": 35.4176,
        "lon": 126.4165
    },
    {
        "name": "Hanul",
        "country": "South Korea",
        "reactor_type": "6 PWR (all operating)",
        "electrical_power_MW": 5881,
        "lat": 37.0941,
        "lon": 129.3856
    },
    {
        "name": "Shin-Hanul",
        "country": "South Korea",
        "reactor_type": "2 APR-1400 PWR (units 1-2 operating, 3-4 under construction)",
        "electrical_power_MW": 2800,
        "lat": 37.0953,
        "lon": 129.3783
    },
    {
        "name": "Qinshan",
        "country": "China",
        "reactor_type": "CNP-300 + 4 CANDU + 4 CPR-1000 PWR",
        "electrical_power_MW": 4428,
        "lat": 30.4358,
        "lon": 120.9593
    },
    {
        "name": "Daya Bay",
        "country": "China",
        "reactor_type": "2 PWR (M310)",
        "electrical_power_MW": 1968,
        "lat": 22.5977,
        "lon": 114.5433
    },
    {
        "name": "Ling Ao",
        "country": "China",
        "reactor_type": "4 PWR CPR-1000",
        "electrical_power_MW": 3800,
        "lat": 22.6068,
        "lon": 114.556
    },
    {
        "name": "Tianwan",
        "country": "China",
        "reactor_type": "6 VVER-1000 + 2 VVER-1200 (units 7-8 u/c)",
        "electrical_power_MW": 6395,
        "lat": 34.6969,
        "lon": 119.4636
    },
    {
        "name": "Yangjiang",
        "country": "China",
        "reactor_type": "6 CPR-1000/ACPR-1000",
        "electrical_power_MW": 6080,
        "lat": 21.735,
        "lon": 111.6197
    },
    {
        "name": "Hongyanhe",
        "country": "China",
        "reactor_type": "6 CPR-1000/ACPR-1000",
        "electrical_power_MW": 6710,
        "lat": 39.796,
        "lon": 121.48
    },
    {
        "name": "Ningde",
        "country": "China",
        "reactor_type": "6 CPR-1000",
        "electrical_power_MW": 6090,
        "lat": 26.6667,
        "lon": 119.5167
    },
    {
        "name": "Fuqing",
        "country": "China",
        "reactor_type": "4 CPR-1000 + 2 Hualong One",
        "electrical_power_MW": 5294,
        "lat": 25.4322,
        "lon": 119.4033
    },
    {
        "name": "Fangchenggang",
        "country": "China",
        "reactor_type": "4 CPR-1000/Hualong One",
        "electrical_power_MW": 4280,
        "lat": 21.6097,
        "lon": 108.3664
    },
    {
        "name": "Taishan",
        "country": "China",
        "reactor_type": "2 EPR",
        "electrical_power_MW": 3400,
        "lat": 22.1578,
        "lon": 112.8231
    },
    {
        "name": "Haiyang",
        "country": "China",
        "reactor_type": "2 AP1000",
        "electrical_power_MW": 2500,
        "lat": 36.7083,
        "lon": 121.3833
    },
    {
        "name": "Sanmen",
        "country": "China",
        "reactor_type": "4 AP1000 (units 1-2 op, 3-4 u/c)",
        "electrical_power_MW": 2500,
        "lat": 29.0997,
        "lon": 121.6744
    },
    {
        "name": "Fangjiashan",
        "country": "China",
        "reactor_type": "2 CPR-1000",
        "electrical_power_MW": 2100,
        "lat": 30.4342,
        "lon": 120.9575
    },
    {
        "name": "Zhangzhou",
        "country": "China",
        "reactor_type": "4 Hualong One (units 1-2 op, 3-4 u/c)",
        "electrical_power_MW": 2200,
        "lat": 24.0086,
        "lon": 117.7017
    },
    {
        "name": "Shidao Bay (HTR-PM)",
        "country": "China",
        "reactor_type": "2 HTR-PM (pebble bed HTGR, world first)",
        "electrical_power_MW": 200,
        "lat": 36.8581,
        "lon": 122.5181
    },
    {
        "name": "Xudabao",
        "country": "China",
        "reactor_type": "4 VVER-1200 (u/c)",
        "electrical_power_MW": 0,
        "lat": 40.5553,
        "lon": 120.2272
    },
    {
        "name": "San'ao",
        "country": "China",
        "reactor_type": "3 Hualong One",
        "electrical_power_MW": 3300,
        "lat": 27.5019,
        "lon": 121.2697
    },
    {
        "name": "Taipingling",
        "country": "China",
        "reactor_type": "3 Hualong One (u/c)",
        "electrical_power_MW": 0,
        "lat": 22.7581,
        "lon": 114.8225
    },
    {
        "name": "Lufeng",
        "country": "China",
        "reactor_type": "6 Hualong One (u/c)",
        "electrical_power_MW": 0,
        "lat": 22.8517,
        "lon": 115.7378
    },
    {
        "name": "Tarapur",
        "country": "India",
        "reactor_type": "2 BWR + 2 PHWR",
        "electrical_power_MW": 1400,
        "lat": 19.8336,
        "lon": 72.6578
    },
    {
        "name": "Rajasthan Atomic Power Station",
        "country": "India",
        "reactor_type": "6 PHWR + 1 IPHWR-700",
        "electrical_power_MW": 1980,
        "lat": 24.8711,
        "lon": 75.5906
    },
    {
        "name": "Madras (Kalpakkam)",
        "country": "India",
        "reactor_type": "2 PHWR",
        "electrical_power_MW": 440,
        "lat": 12.5597,
        "lon": 80.1717
    },
    {
        "name": "Narora",
        "country": "India",
        "reactor_type": "2 PHWR",
        "electrical_power_MW": 440,
        "lat": 28.1769,
        "lon": 78.3908
    },
    {
        "name": "Kakrapar",
        "country": "India",
        "reactor_type": "2 PHWR + 2 IPHWR-700",
        "electrical_power_MW": 1040,
        "lat": 21.2392,
        "lon": 73.3483
    },
    {
        "name": "Kaiga",
        "country": "India",
        "reactor_type": "4 PHWR",
        "electrical_power_MW": 880,
        "lat": 14.8639,
        "lon": 74.4408
    },
    {
        "name": "Kudankulam",
        "country": "India",
        "reactor_type": "2 VVER-1000 (units 3-4 u/c)",
        "electrical_power_MW": 2000,
        "lat": 8.1711,
        "lon": 77.7139
    },
    {
        "name": "Chinshan (closed)",
        "country": "Taiwan",
        "reactor_type": "2 GE BWR Mark I (closed, decommissioning)",
        "electrical_power_MW": 0,
        "lat": 25.2972,
        "lon": 121.5628
    },
    {
        "name": "Kuosheng (closed)",
        "country": "Taiwan",
        "reactor_type": "2 GE BWR Mark III (closed, restart under review)",
        "electrical_power_MW": 0,
        "lat": 25.1714,
        "lon": 121.6639
    },
    {
        "name": "Maanshan (closed)",
        "country": "Taiwan",
        "reactor_type": "2 Westinghouse PWR (closed May 2025, restart under review)",
        "electrical_power_MW": 0,
        "lat": 21.9589,
        "lon": 120.7501
    },
    {
        "name": "Lungmen (closed)",
        "country": "Taiwan",
        "reactor_type": "2 ABWR (construction halted 2014, never commissioned)",
        "electrical_power_MW": 0,
        "lat": 25.0306,
        "lon": 121.9222
    },
    {
        "name": "Barakah",
        "country": "United Arab Emirates",
        "reactor_type": "4 APR-1400 PWR (all operating)",
        "electrical_power_MW": 5600,
        "lat": 23.9697,
        "lon": 52.2319
    },
    {
        "name": "Karachi Nuclear Power Complex (KANUPP)",
        "country": "Pakistan",
        "reactor_type": "2 Hualong One PWR (K-2, K-3 operating); K-1 PHWR closed 2021",
        "electrical_power_MW": 2200,
        "lat": 24.9417,
        "lon": 66.7928
    },
    {
        "name": "Chashma Nuclear Power Station",
        "country": "Pakistan",
        "reactor_type": "4 PWR CNP-300 (C-1 to C-4 operating); C-5 1200MW u/c",
        "electrical_power_MW": 1200,
        "lat": 32.3903,
        "lon": 71.4589
    }
]
