[
    {
        "name": "Loviisa",
        "country": "Finland",
        "reactor_type": "2 VVER-440",
        "electrical_power_MW": 1010,
        "lat": 60.3714,
        "lon": 26.3469
    },
    {
        "name": "Olkiluoto",
        "country": "Finland",
        "reactor_type": "2 BWR + 1 EPR",
        "electrical_power_MW": 3560,
        "lat": 61.2392,
        "lon": 21.4384
    },
    {
        "name": "Forsmark",
        "country": "Sweden",
        "reactor_type": "3 BWR",
        "electrical_power_MW": 3320,
        "lat": 60.4025,
        "lon": 18.1711
    },
    {
        "name": "Oskarshamn",
        "country": "Sweden",
        "reactor_type": "BWR",
        "electrical_power_MW": 1400,
        "lat": 57.4128,
        "lon": 16.6742
    },
    {
        "name": "Ringhals",
        "country": "Sweden",
        "reactor_type": "2 PWR",
        "electrical_power_MW": 2240,
        "lat": 57.2583,
        "lon": 12.1058
    },
    {
        "name": "Barsebäck (closed)",
        "country": "Sweden",
        "reactor_type": "2 BWR (closed)",
        "electrical_power_MW": 0,
        "lat": 55.75,
        "lon": 12.9
    },
    {
        "name": "Leibstadt",
        "country": "Switzerland",
        "reactor_type": "BWR",
        "electrical_power_MW": 1220,
        "lat": 47.6014,
        "lon": 8.1836
    },
    {
        "name": "Beznau",
        "country": "Switzerland",
        "reactor_type": "2 PWR",
        "electrical_power_MW": 730,
        "lat": 47.5236,
        "lon": 8.1158
    },
    {
        "name": "Gösgen",
        "country": "Switzerland",
        "reactor_type": "PWR",
        "electrical_power_MW": 1060,
        "lat": 47.3664,
        "lon": 7.9661
    },
    {
        "name": "Mühleberg (closed)",
        "country": "Switzerland",
        "reactor_type": "BWR (closed)",
        "electrical_power_MW": 0,
        "lat": 46.9667,
        "lon": 7.2667
    },
    {
        "name": "Cattenom",
        "country": "France",
        "reactor_type": "4 PWR",
        "electrical_power_MW": 5448,
        "lat": 49.4,
        "lon": 6.2167
    },
    {
        "name": "Flamanville",
        "country": "France",
        "reactor_type": "2 PWR + 1 EPR",
        "electrical_power_MW": 4200,
        "lat": 49.5382,
        "lon": -1.8803
    },
    {
        "name": "Paluel",
        "country": "France",
        "reactor_type": "4 PWR",
        "electrical_power_MW": 5320,
        "lat": 49.8667,
        "lon": 0.6333
    },
    {
        "name": "Gravelines",
        "country": "France",
        "reactor_type": "6 PWR",
        "electrical_power_MW": 5460,
        "lat": 51.0167,
        "lon": 2.1333
    },
    {
        "name": "Blayais",
        "country": "France",
        "reactor_type": "4 PWR",
        "electrical_power_MW": 3640,
        "lat": 45.25,
        "lon": -0.6833
    },
    {
        "name": "Bugey",
        "country": "France",
        "reactor_type": "4 PWR",
        "electrical_power_MW": 3564,
        "lat": 45.7981,
        "lon": 5.27
    },
    {
        "name": "Chinon",
        "country": "France",
        "reactor_type": "4 PWR",
        "electrical_power_MW": 3584,
        "lat": 47.2333,
        "lon": 0.1667
    },
    {
        "name": "Civaux",
        "country": "France",
        "reactor_type": "2 PWR",
        "electrical_power_MW": 2990,
        "lat": 46.4597,
        "lon": 0.6514
    },
    {
        "name": "Cruas",
        "country": "France",
        "reactor_type": "4 PWR",
        "electrical_power_MW": 3660,
        "lat": 44.6333,
        "lon": 4.7667
    },
    {
        "name": "Dampierre",
        "country": "France",
        "reactor_type": "4 PWR",
        "electrical_power_MW": 3568,
        "lat": 47.7333,
        "lon": 2.5167
    },
    {
        "name": "Golfech",
        "country": "France",
        "reactor_type": "2 PWR",
        "electrical_power_MW": 2620,
        "lat": 44.1,
        "lon": 0.85
    },
    {
        "name": "Nogent-sur-Seine",
        "country": "France",
        "reactor_type": "2 PWR",
        "electrical_power_MW": 2620,
        "lat": 48.5167,
        "lon": 3.5167
    },
    {
        "name": "Penly",
        "country": "France",
        "reactor_type": "2 PWR",
        "electrical_power_MW": 2660,
        "lat": 49.9833,
        "lon": 1.2167
    },
    {
        "name": "Saint-Alban",
        "country": "France",
        "reactor_type": "2 PWR",
        "electrical_power_MW": 2660,
        "lat": 45.4333,
        "lon": 4.8167
    },
    {
        "name": "Saint-Laurent",
        "country": "France",
        "reactor_type": "2 PWR",
        "electrical_power_MW": 1830,
        "lat": 47.7167,
        "lon": 1.5667
    },
    {
        "name": "Tricastin",
        "country": "France",
        "reactor_type": "4 PWR",
        "electrical_power_MW": 3660,
        "lat": 44.3333,
        "lon": 4.7333
    },
    {
        "name": "Brokdorf (closed)",
        "country": "Germany",
        "reactor_type": "PWR (closed)",
        "electrical_power_MW": 0,
        "lat": 53.8511,
        "lon": 9.3947
    },
    {
        "name": "Grohnde (closed)",
        "country": "Germany",
        "reactor_type": "PWR (closed)",
        "electrical_power_MW": 0,
        "lat": 52.0333,
        "lon": 9.3833
    },
    {
        "name": "Gundremmingen (closed)",
        "country": "Germany",
        "reactor_type": "2 BWR (closed)",
        "electrical_power_MW": 0,
        "lat": 48.5122,
        "lon": 10.4011
    },
    {
        "name": "Isar (closed)",
        "country": "Germany",
        "reactor_type": "2 PWR/BWR (closed)",
        "electrical_power_MW": 0,
        "lat": 48.6058,
        "lon": 12.2917
    },
    {
        "name": "Emsland (closed)",
        "country": "Germany",
        "reactor_type": "PWR (closed)",
        "electrical_power_MW": 0,
        "lat": 52.4742,
        "lon": 7.3231
    },
    {
        "name": "Neckarwestheim (closed)",
        "country": "Germany",
        "reactor_type": "2 PWR (closed)",
        "electrical_power_MW": 0,
        "lat": 49.0408,
        "lon": 9.1742
    },
    {
        "name": "Borssele",
        "country": "Netherlands",
        "reactor_type": "PWR",
        "electrical_power_MW": 512,
        "lat": 51.4312,
        "lon": 3.7179
    },
    {
        "name": "Doel",
        "country": "Belgium",
        "reactor_type": "4 PWR",
        "electrical_power_MW": 4017,
        "lat": 51.3253,
        "lon": 4.2628
    },
    {
        "name": "Tihange",
        "country": "Belgium",
        "reactor_type": "3 PWR",
        "electrical_power_MW": 3006,
        "lat": 50.5339,
        "lon": 5.2706
    },
    {
        "name": "Hinkley Point C",
        "country": "United Kingdom",
        "reactor_type": "2 EPR (under construction)",
        "electrical_power_MW": 3260,
        "lat": 51.2078,
        "lon": -3.1333
    },
    {
        "name": "Sizewell B",
        "country": "United Kingdom",
        "reactor_type": "PWR",
        "electrical_power_MW": 1198,
        "lat": 52.2083,
        "lon": 1.6208
    },
    {
        "name": "Torness",
        "country": "United Kingdom",
        "reactor_type": "2 AGR",
        "electrical_power_MW": 1364,
        "lat": 55.9687,
        "lon": -2.4085
    },
    {
        "name": "Heysham",
        "country": "United Kingdom",
        "reactor_type": "4 AGR",
        "electrical_power_MW": 2400,
        "lat": 54.0292,
        "lon": -2.9208
    },
    {
        "name": "Hartlepool",
        "country": "United Kingdom",
        "reactor_type": "2 AGR",
        "electrical_power_MW": 1210,
        "lat": 54.6333,
        "lon": -1.1833
    },
    {
        "name": "Dungeness B (closed)",
        "country": "United Kingdom",
        "reactor_type": "2 AGR (closed)",
        "electrical_power_MW": 0,
        "lat": 50.9167,
        "lon": 0.9667
    },
    {
        "name": "Almaraz",
        "country": "Spain",
        "reactor_type": "2 PWR",
        "electrical_power_MW": 2020,
        "lat": 39.8067,
        "lon": -5.6981
    },
    {
        "name": "Ascó",
        "country": "Spain",
        "reactor_type": "2 PWR",
        "electrical_power_MW": 2000,
        "lat": 41.2003,
        "lon": 0.5683
    },
    {
        "name": "Cofrentes",
        "country": "Spain",
        "reactor_type": "BWR",
        "electrical_power_MW": 1092,
        "lat": 39.25,
        "lon": -1.0631
    },
    {
        "name": "Vandellós II",
        "country": "Spain",
        "reactor_type": "PWR",
        "electrical_power_MW": 1088,
        "lat": 40.9514,
        "lon": 0.8667
    },
    {
        "name": "Trillo",
        "country": "Spain",
        "reactor_type": "PWR",
        "electrical_power_MW": 1066,
        "lat": 40.6872,
        "lon": -2.5872
    },
    {
        "name": "Dukovany",
        "country": "Czech Republic",
        "reactor_type": "4 VVER-440",
        "electrical_power_MW": 2040,
        "lat": 49.0883,
        "lon": 16.1478
    },
    {
        "name": "Temelín",
        "country": "Czech Republic",
        "reactor_type": "2 VVER-1000",
        "electrical_power_MW": 2160,
        "lat": 49.1967,
        "lon": 14.3742
    },
    {
        "name": "Paks",
        "country": "Hungary",
        "reactor_type": "4 VVER-440",
        "electrical_power_MW": 2000,
        "lat": 46.5736,
        "lon": 18.8561
    },
    {
        "name": "Bohunice",
        "country": "Slovakia",
        "reactor_type": "2 VVER-440",
        "electrical_power_MW": 880,
        "lat": 48.4917,
        "lon": 17.6833
    },
    {
        "name": "Mochovce",
        "country": "Slovakia",
        "reactor_type": "4 VVER-440",
        "electrical_power_MW": 1816,
        "lat": 48.2616,
        "lon": 18.4601
    },
    {
        "name": "Cernavodă",
        "country": "Romania",
        "reactor_type": "2 CANDU",
        "electrical_power_MW": 1400,
        "lat": 44.32,
        "lon": 28.0567
    },
    {
        "name": "Kozloduy",
        "country": "Bulgaria",
        "reactor_type": "2 VVER-1000",
        "electrical_power_MW": 2000,
        "lat": 43.7961,
        "lon": 23.7842
    },
    {
        "name": "Krško",
        "country": "Slovenia",
        "reactor_type": "PWR",
        "electrical_power_MW": 696,
        "lat": 45.9395,
        "lon": 15.5171
    },
    {
        "name": "Metsamor",
        "country": "Armenia",
        "reactor_type": "2 VVER-440",
        "electrical_power_MW": 800,
        "lat": 40.1807,
        "lon": 44.1477
    },
    {
        "name": "Leningrad",
        "country": "Russia",
        "reactor_type": "4 RBMK + 2 VVER-1200",
        "electrical_power_MW": 5500,
        "lat": 59.8317,
        "lon": 29.0731
    },
    {
        "name": "Kola",
        "country": "Russia",
        "reactor_type": "4 VVER-440",
        "electrical_power_MW": 1760,
        "lat": 67.4656,
        "lon": 32.4978
    },
    {
        "name": "Kalinin",
        "country": "Russia",
        "reactor_type": "4 VVER-1000",
        "electrical_power_MW": 4000,
        "lat": 57.9167,
        "lon": 36.7333
    },
    {
        "name": "Smolensk",
        "country": "Russia",
        "reactor_type": "3 RBMK",
        "electrical_power_MW": 3000,
        "lat": 54.1667,
        "lon": 33.2333
    },
    {
        "name": "Novovoronezh",
        "country": "Russia",
        "reactor_type": "2 VVER-440 + 2 VVER-1000 + 2 VVER-1200",
        "electrical_power_MW": 5760,
        "lat": 51.2833,
        "lon": 39.2167
    },
    {
        "name": "Zaporižžja",
        "country": "Ukraine",
        "reactor_type": "6 VVER-1000",
        "electrical_power_MW": 5700,
        "lat": 47.5083,
        "lon": 34.5864
    },
    {
        "name": "Rivne",
        "country": "Ukraine",
        "reactor_type": "4 VVER",
        "electrical_power_MW": 2835,
        "lat": 51.3167,
        "lon": 25.8833
    },
    {
        "name": "Hmelnytski",
        "country": "Ukraine",
        "reactor_type": "2 VVER-1000",
        "electrical_power_MW": 1900,
        "lat": 50.3,
        "lon": 26.65
    },
    {
        "name": "South Ukraine",
        "country": "Ukraine",
        "reactor_type": "3 VVER-1000",
        "electrical_power_MW": 2850,
        "lat": 47.8333,
        "lon": 31.2167
    },
    {
        "name": "Chernobyl (closed)",
        "country": "Ukraine",
        "reactor_type": "4 RBMK (closed)",
        "electrical_power_MW": 0,
        "lat": 51.3833,
        "lon": 30.0997
    },
    {
        "name": "Ignalina (closed)",
        "country": "Lithuania",
        "reactor_type": "2 RBMK (closed)",
        "electrical_power_MW": 0,
        "lat": 55.6,
        "lon": 26.5667
    },
    {
        "name": "Fukushima Daiichi (closed)",
        "country": "Japan",
        "reactor_type": "6 GE-BWR (closed)",
        "electrical_power_MW": 0,
        "lat": 37.4214,
        "lon": 141.0325
    },
    {
        "name": "Fukushima Daini",
        "country": "Japan",
        "reactor_type": "4 BWR",
        "electrical_power_MW": 4400,
        "lat": 37.3167,
        "lon": 141.0167
    },
    {
        "name": "Arkansas Nuclear One (ANO)",
        "country": "United States",
        "reactor_type": "2 PWR",
        "electrical_power_MW": 1840,
        "lat": 35.31028,
        "lon": -93.23139
    },
    {
        "name": "Beaver Valley",
        "country": "United States",
        "reactor_type": "2 PWR",
        "electrical_power_MW": 1800,
        "lat": 40.62333,
        "lon": -80.43056
    },
    {
        "name": "Braidwood",
        "country": "United States",
        "reactor_type": "2 PWR",
        "electrical_power_MW": 2330,
        "lat": 41.24361,
        "lon": -88.22917
    },
    {
        "name": "Browns Ferry",
        "country": "United States",
        "reactor_type": "3 BWR",
        "electrical_power_MW": 3300,
        "lat": 34.70389,
        "lon": -87.11861
    },
    {
        "name": "Brunswick",
        "country": "United States",
        "reactor_type": "2 BWR",
        "electrical_power_MW": 1870,
        "lat": 33.95833,
        "lon": -78.01028
    },
    {
        "name": "Byron",
        "country": "United States",
        "reactor_type": "2 PWR",
        "electrical_power_MW": 2347,
        "lat": 42.07417,
        "lon": -89.28194
    },
    {
        "name": "Callaway",
        "country": "United States",
        "reactor_type": "PWR",
        "electrical_power_MW": 1190,
        "lat": 38.76167,
        "lon": -91.78
    },
    {
        "name": "Calvert Cliffs",
        "country": "United States",
        "reactor_type": "2 PWR",
        "electrical_power_MW": 1729,
        "lat": 38.43194,
        "lon": -76.44222
    },
    {
        "name": "Catawba",
        "country": "United States",
        "reactor_type": "2 PWR",
        "electrical_power_MW": 2258,
        "lat": 35.05167,
        "lon": -81.07
    },
    {
        "name": "Clinton",
        "country": "United States",
        "reactor_type": "BWR",
        "electrical_power_MW": 1062,
        "lat": 40.17222,
        "lon": -88.835
    },
    {
        "name": "Columbia Generating Station",
        "country": "United States",
        "reactor_type": "BWR",
        "electrical_power_MW": 1207,
        "lat": 46.47111,
        "lon": -119.33389
    },
    {
        "name": "Comanche Peak",
        "country": "United States",
        "reactor_type": "2 PWR",
        "electrical_power_MW": 2400,
        "lat": 32.29833,
        "lon": -97.785
    },
    {
        "name": "Cooper",
        "country": "United States",
        "reactor_type": "BWR",
        "electrical_power_MW": 769,
        "lat": 40.36194,
        "lon": -95.64139
    },
    {
        "name": "Davis-Besse",
        "country": "United States",
        "reactor_type": "PWR",
        "electrical_power_MW": 894,
        "lat": 41.59667,
        "lon": -83.08639
    },
    {
        "name": "Diablo Canyon",
        "country": "United States",
        "reactor_type": "2 PWR",
        "electrical_power_MW": 2256,
        "lat": 35.21083,
        "lon": -120.85611
    },
    {
        "name": "Donald C. Cook",
        "country": "United States",
        "reactor_type": "2 PWR",
        "electrical_power_MW": 2191,
        "lat": 41.97528,
        "lon": -86.56583
    },
    {
        "name": "Dresden",
        "country": "United States",
        "reactor_type": "2 BWR",
        "electrical_power_MW": 1845,
        "lat": 41.38972,
        "lon": -88.26806
    },
    {
        "name": "Edwin I. Hatch",
        "country": "United States",
        "reactor_type": "2 BWR",
        "electrical_power_MW": 1755,
        "lat": 31.93417,
        "lon": -82.34389
    },
    {
        "name": "Enrico Fermi",
        "country": "United States",
        "reactor_type": "PWR",
        "electrical_power_MW": 1122,
        "lat": 41.96278,
        "lon": -83.2575
    },
    {
        "name": "Grand Gulf",
        "country": "United States",
        "reactor_type": "BWR",
        "electrical_power_MW": 1401,
        "lat": 32.00667,
        "lon": -91.04833
    },
    {
        "name": "Hope Creek",
        "country": "United States",
        "reactor_type": "BWR",
        "electrical_power_MW": 1172,
        "lat": 39.46778,
        "lon": -75.53806
    },
    {
        "name": "James A. FitzPatrick",
        "country": "United States",
        "reactor_type": "BWR",
        "electrical_power_MW": 838,
        "lat": 43.5233,
        "lon": -76.3983
    },
    {
        "name": "Joseph M. Farley",
        "country": "United States",
        "reactor_type": "2 PWR",
        "electrical_power_MW": 1755,
        "lat": 31.22306,
        "lon": -85.11167
    },
    {
        "name": "LaSalle",
        "country": "United States",
        "reactor_type": "2 BWR",
        "electrical_power_MW": 2330,
        "lat": 41.24556,
        "lon": -88.66917
    },
    {
        "name": "Limerick",
        "country": "United States",
        "reactor_type": "2 BWR",
        "electrical_power_MW": 2317,
        "lat": 40.22667,
        "lon": -75.58722
    },
    {
        "name": "McGuire",
        "country": "United States",
        "reactor_type": "2 PWR",
        "electrical_power_MW": 2316,
        "lat": 35.4325,
        "lon": -80.94833
    },
    {
        "name": "Millstone",
        "country": "United States",
        "reactor_type": "2 PWR",
        "electrical_power_MW": 2089,
        "lat": 41.31194,
        "lon": -72.16861
    },
    {
        "name": "Monticello",
        "country": "United States",
        "reactor_type": "BWR",
        "electrical_power_MW": 671,
        "lat": 45.33361,
        "lon": -93.84917
    },
    {
        "name": "Nine Mile Point",
        "country": "United States",
        "reactor_type": "2 BWR",
        "electrical_power_MW": 1757,
        "lat": 43.52083,
        "lon": -76.40694
    },
    {
        "name": "North Anna",
        "country": "United States",
        "reactor_type": "2 PWR",
        "electrical_power_MW": 1892,
        "lat": 38.06056,
        "lon": -77.78944
    },
    {
        "name": "Oconee",
        "country": "United States",
        "reactor_type": "3 PWR",
        "electrical_power_MW": 2554,
        "lat": 34.79389,
        "lon": -82.89806
    },
    {
        "name": "Palo Verde",
        "country": "United States",
        "reactor_type": "3 PWR",
        "electrical_power_MW": 3937,
        "lat": 33.38917,
        "lon": -112.865
    },
    {
        "name": "Peach Bottom",
        "country": "United States",
        "reactor_type": "2 BWR",
        "electrical_power_MW": 2627,
        "lat": 39.75833,
        "lon": -76.26806
    },
    {
        "name": "Perry",
        "country": "United States",
        "reactor_type": "BWR",
        "electrical_power_MW": 1268,
        "lat": 41.80083,
        "lon": -81.14333
    },
    {
        "name": "Point Beach",
        "country": "United States",
        "reactor_type": "2 PWR",
        "electrical_power_MW": 1198,
        "lat": 44.28111,
        "lon": -87.53667
    },
    {
        "name": "Prairie Island",
        "country": "United States",
        "reactor_type": "2 PWR",
        "electrical_power_MW": 1096,
        "lat": 44.62167,
        "lon": -92.63306
    },
    {
        "name": "Quad Cities",
        "country": "United States",
        "reactor_type": "2 BWR",
        "electrical_power_MW": 1819,
        "lat": 41.72639,
        "lon": -90.31
    },
    {
        "name": "R.E. Ginna",
        "country": "United States",
        "reactor_type": "PWR",
        "electrical_power_MW": 614,
        "lat": 43.27778,
        "lon": -77.31
    },
    {
        "name": "River Bend",
        "country": "United States",
        "reactor_type": "BWR",
        "electrical_power_MW": 994,
        "lat": 30.7567,
        "lon": -91.333
    },
    {
        "name": "Saint Lucie",
        "country": "United States",
        "reactor_type": "2 PWR",
        "electrical_power_MW": 1989,
        "lat": 27.34861,
        "lon": -80.24639
    },
    {
        "name": "Salem",
        "country": "United States",
        "reactor_type": "2 PWR",
        "electrical_power_MW": 2275,
        "lat": 39.46278,
        "lon": -75.53556
    },
    {
        "name": "Seabrook",
        "country": "United States",
        "reactor_type": "PWR",
        "electrical_power_MW": 1296,
        "lat": 42.89889,
        "lon": -70.85083
    },
    {
        "name": "Sequoyah",
        "country": "United States",
        "reactor_type": "2 PWR",
        "electrical_power_MW": 2440,
        "lat": 35.22639,
        "lon": -85.09167
    },
    {
        "name": "Shearon Harris",
        "country": "United States",
        "reactor_type": "PWR",
        "electrical_power_MW": 964,
        "lat": 35.6333,
        "lon": -78.955
    },
    {
        "name": "South Texas Project",
        "country": "United States",
        "reactor_type": "2 PWR",
        "electrical_power_MW": 2700,
        "lat": 28.79556,
        "lon": -96.04889
    },
    {
        "name": "Surry",
        "country": "United States",
        "reactor_type": "2 PWR",
        "electrical_power_MW": 1648,
        "lat": 37.16556,
        "lon": -76.69778
    },
    {
        "name": "Susquehanna",
        "country": "United States",
        "reactor_type": "2 BWR",
        "electrical_power_MW": 2683,
        "lat": 41.08889,
        "lon": -76.14889
    },
    {
        "name": "Vogtle",
        "country": "United States",
        "reactor_type": "4 PWR",
        "electrical_power_MW": 4536,
        "lat": 33.14306,
        "lon": -81.76583
    },
    {
        "name": "Watts Bar",
        "country": "United States",
        "reactor_type": "2 PWR",
        "electrical_power_MW": 2316,
        "lat": 35.60278,
        "lon": -84.78944
    },
    {
        "name": "H. B. Robinson",
        "country": "United States",
        "reactor_type": "PWR",
        "electrical_power_MW": 769,
        "lat": 34.40278,
        "lon": -80.15833
    },
    {
        "name": "Turkey Point",
        "country": "United States",
        "reactor_type": "2 PWR",
        "electrical_power_MW": 1604,
        "lat": 25.43417,
        "lon": -80.33056
    },
    {
        "name": "Waterford",
        "country": "United States",
        "reactor_type": "PWR",
        "electrical_power_MW": 1152,
        "lat": 29.99528,
        "lon": -90.47111
    },
    {
        "name": "Wolf Creek",
        "country": "United States",
        "reactor_type": "PWR",
        "electrical_power_MW": 1200,
        "lat": 38.23889,
        "lon": -95.68889
    },
    {
        "name": "Indian Point (closed)",
        "country": "United States",
        "reactor_type": "2 PWR (closed)",
        "electrical_power_MW": 0,
        "lat": 41.2695,
        "lon": -73.9527
    },
    {
        "name": "San Onofre (closed)",
        "country": "United States",
        "reactor_type": "2 PWR (closed)",
        "electrical_power_MW": 0,
        "lat": 33.3717,
        "lon": -117.5572
    },
    {
        "name": "Three Mile Island (closed)",
        "country": "United States",
        "reactor_type": "PWR (closed)",
        "electrical_power_MW": 0,
        "lat": 40.1532,
        "lon": -76.725
    }
]
