[
    {
        "name": "Loviisa",
        "country": "Finland",
        "reactor_type": "2 VVER-440",
        "electrical_power_MW": 1010,
        "lat": 60.3714,
        "lon": 26.3469
    },
    {
        "name": "Olkiluoto",
        "country": "Finland",
        "reactor_type": "2 BWR + 1 EPR",
        "electrical_power_MW": 3560,
        "lat": 61.2392,
        "lon": 21.4384
    },
    {
        "name": "Forsmark",
        "country": "Sweden",
        "reactor_type": "3 BWR",
        "electrical_power_MW": 3320,
        "lat": 60.4025,
        "lon": 18.1711
    },
    {
        "name": "Oskarshamn",
        "country": "Sweden",
        "reactor_type": "BWR",
        "electrical_power_MW": 1400,
        "lat": 57.4128,
        "lon": 16.6742
    },
    {
        "name": "Ringhals",
        "country": "Sweden",
        "reactor_type": "2 PWR",
        "electrical_power_MW": 2240,
        "lat": 57.2583,
        "lon": 12.1058
    },
    {
        "name": "Barsebäck (closed)",
        "country": "Sweden",
        "reactor_type": "2 BWR (closed)",
        "electrical_power_MW": 0,
        "lat": 55.75,
        "lon": 12.9
    },
    {
        "name": "Leibstadt",
        "country": "Switzerland",
        "reactor_type": "BWR",
        "electrical_power_MW": 1220,
        "lat": 47.6014,
        "lon": 8.1836
    },
    {
        "name": "Beznau",
        "country": "Switzerland",
        "reactor_type": "2 PWR",
        "electrical_power_MW": 730,
        "lat": 47.5236,
        "lon": 8.1158
    },
    {
        "name": "Gösgen",
        "country": "Switzerland",
        "reactor_type": "PWR",
        "electrical_power_MW": 1060,
        "lat": 47.3664,
        "lon": 7.9661
    },
    {
        "name": "Mühleberg (closed)",
        "country": "Switzerland",
        "reactor_type": "BWR (closed)",
        "electrical_power_MW": 0,
        "lat": 46.9667,
        "lon": 7.2667
    },
    {
        "name": "Cattenom",
        "country": "France",
        "reactor_type": "4 PWR",
        "electrical_power_MW": 5448,
        "lat": 49.4,
        "lon": 6.2167
    },
    {
        "name": "Flamanville",
        "country": "France",
        "reactor_type": "2 PWR + 1 EPR",
        "electrical_power_MW": 4200,
        "lat": 49.5382,
        "lon": -1.8803
    },
    {
        "name": "Paluel",
        "country": "France",
        "reactor_type": "4 PWR",
        "electrical_power_MW": 5320,
        "lat": 49.8667,
        "lon": 0.6333
    },
    {
        "name": "Gravelines",
        "country": "France",
        "reactor_type": "6 PWR",
        "electrical_power_MW": 5460,
        "lat": 51.0167,
        "lon": 2.1333
    },
    {
        "name": "Blayais",
        "country": "France",
        "reactor_type": "4 PWR",
        "electrical_power_MW": 3640,
        "lat": 45.25,
        "lon": -0.6833
    },
    {
        "name": "Bugey",
        "country": "France",
        "reactor_type": "4 PWR",
        "electrical_power_MW": 3564,
        "lat": 45.7981,
        "lon": 5.27
    },
    {
        "name": "Chinon",
        "country": "France",
        "reactor_type": "4 PWR",
        "electrical_power_MW": 3584,
        "lat": 47.2333,
        "lon": 0.1667
    },
    {
        "name": "Civaux",
        "country": "France",
        "reactor_type": "2 PWR",
        "electrical_power_MW": 2990,
        "lat": 46.4597,
        "lon": 0.6514
    },
    {
        "name": "Cruas",
        "country": "France",
        "reactor_type": "4 PWR",
        "electrical_power_MW": 3660,
        "lat": 44.6333,
        "lon": 4.7667
    },
    {
        "name": "Dampierre",
        "country": "France",
        "reactor_type": "4 PWR",
        "electrical_power_MW": 3568,
        "lat": 47.7333,
        "lon": 2.5167
    },
    {
        "name": "Golfech",
        "country": "France",
        "reactor_type": "2 PWR",
        "electrical_power_MW": 2620,
        "lat": 44.1,
        "lon": 0.85
    },
    {
        "name": "Nogent-sur-Seine",
        "country": "France",
        "reactor_type": "2 PWR",
        "electrical_power_MW": 2620,
        "lat": 48.5167,
        "lon": 3.5167
    },
    {
        "name": "Penly",
        "country": "France",
        "reactor_type": "2 PWR",
        "electrical_power_MW": 2660,
        "lat": 49.9833,
        "lon": 1.2167
    },
    {
        "name": "Saint-Alban",
        "country": "France",
        "reactor_type": "2 PWR",
        "electrical_power_MW": 2660,
        "lat": 45.4333,
        "lon": 4.8167
    },
    {
        "name": "Saint-Laurent",
        "country": "France",
        "reactor_type": "2 PWR",
        "electrical_power_MW": 1830,
        "lat": 47.7167,
        "lon": 1.5667
    },
    {
        "name": "Tricastin",
        "country": "France",
        "reactor_type": "4 PWR",
        "electrical_power_MW": 3660,
        "lat": 44.3333,
        "lon": 4.7333
    },
    {
        "name": "Brokdorf (closed)",
        "country": "Germany",
        "reactor_type": "PWR (closed)",
        "electrical_power_MW": 0,
        "lat": 53.8511,
        "lon": 9.3947
    },
    {
        "name": "Grohnde (closed)",
        "country": "Germany",
        "reactor_type": "PWR (closed)",
        "electrical_power_MW": 0,
        "lat": 52.0333,
        "lon": 9.3833
    },
    {
        "name": "Gundremmingen (closed)",
        "country": "Germany",
        "reactor_type": "2 BWR (closed)",
        "electrical_power_MW": 0,
        "lat": 48.5122,
        "lon": 10.4011
    },
    {
        "name": "Isar (closed)",
        "country": "Germany",
        "reactor_type": "2 PWR/BWR (closed)",
        "electrical_power_MW": 0,
        "lat": 48.6058,
        "lon": 12.2917
    },
    {
        "name": "Emsland (closed)",
        "country": "Germany",
        "reactor_type": "PWR (closed)",
        "electrical_power_MW": 0,
        "lat": 52.4742,
        "lon": 7.3231
    },
    {
        "name": "Neckarwestheim (closed)",
        "country": "Germany",
        "reactor_type": "2 PWR (closed)",
        "electrical_power_MW": 0,
        "lat": 49.0408,
        "lon": 9.1742
    },
    {
        "name": "Borssele",
        "country": "Netherlands",
        "reactor_type": "PWR",
        "electrical_power_MW": 512,
        "lat": 51.4312,
        "lon": 3.7179
    },
    {
        "name": "Doel",
        "country": "Belgium",
        "reactor_type": "4 PWR",
        "electrical_power_MW": 4017,
        "lat": 51.3253,
        "lon": 4.2628
    },
    {
        "name": "Tihange",
        "country": "Belgium",
        "reactor_type": "3 PWR",
        "electrical_power_MW": 3006,
        "lat": 50.5339,
        "lon": 5.2706
    },
    {
        "name": "Hinkley Point C",
        "country": "United Kingdom",
        "reactor_type": "2 EPR (under construction)",
        "electrical_power_MW": 3260,
        "lat": 51.2078,
        "lon": -3.1333
    },
    {
        "name": "Sizewell B",
        "country": "United Kingdom",
        "reactor_type": "PWR",
        "electrical_power_MW": 1198,
        "lat": 52.2083,
        "lon": 1.6208
    },
    {
        "name": "Torness",
        "country": "United Kingdom",
        "reactor_type": "2 AGR",
        "electrical_power_MW": 1364,
        "lat": 55.9687,
        "lon": -2.4085
    },
    {
        "name": "Heysham",
        "country": "United Kingdom",
        "reactor_type": "4 AGR",
        "electrical_power_MW": 2400,
        "lat": 54.0292,
        "lon": -2.9208
    },
    {
        "name": "Hartlepool",
        "country": "United Kingdom",
        "reactor_type": "2 AGR",
        "electrical_power_MW": 1210,
        "lat": 54.6333,
        "lon": -1.1833
    },
    {
        "name": "Dungeness B (closed)",
        "country": "United Kingdom",
        "reactor_type": "2 AGR (closed)",
        "electrical_power_MW": 0,
        "lat": 50.9167,
        "lon": 0.9667
    },
    {
        "name": "Almaraz",
        "country": "Spain",
        "reactor_type": "2 PWR",
        "electrical_power_MW": 2020,
        "lat": 39.8067,
        "lon": -5.6981
    },
    {
        "name": "Ascó",
        "country": "Spain",
        "reactor_type": "2 PWR",
        "electrical_power_MW": 2000,
        "lat": 41.2003,
        "lon": 0.5683
    },
    {
        "name": "Cofrentes",
        "country": "Spain",
        "reactor_type": "BWR",
        "electrical_power_MW": 1092,
        "lat": 39.25,
        "lon": -1.0631
    },
    {
        "name": "Vandellós II",
        "country": "Spain",
        "reactor_type": "PWR",
        "electrical_power_MW": 1088,
        "lat": 40.9514,
        "lon": 0.8667
    },
    {
        "name": "Trillo",
        "country": "Spain",
        "reactor_type": "PWR",
        "electrical_power_MW": 1066,
        "lat": 40.6872,
        "lon": -2.5872
    },
    {
        "name": "Dukovany",
        "country": "Czech Republic",
        "reactor_type": "4 VVER-440",
        "electrical_power_MW": 2040,
        "lat": 49.0883,
        "lon": 16.1478
    },
    {
        "name": "Temelín",
        "country": "Czech Republic",
        "reactor_type": "2 VVER-1000",
        "electrical_power_MW": 2160,
        "lat": 49.1967,
        "lon": 14.3742
    },
    {
        "name": "Paks",
        "country": "Hungary",
        "reactor_type": "4 VVER-440",
        "electrical_power_MW": 2000,
        "lat": 46.5736,
        "lon": 18.8561
    },
    {
        "name": "Bohunice",
        "country": "Slovakia",
        "reactor_type": "2 VVER-440",
        "electrical_power_MW": 880,
        "lat": 48.4917,
        "lon": 17.6833
    },
    {
        "name": "Mochovce",
        "country": "Slovakia",
        "reactor_type": "4 VVER-440",
        "electrical_power_MW": 1816,
        "lat": 48.2616,
        "lon": 18.4601
    },
    {
        "name": "Cernavodă",
        "country": "Romania",
        "reactor_type": "2 CANDU",
        "electrical_power_MW": 1400,
        "lat": 44.32,
        "lon": 28.0567
    },
    {
        "name": "Kozloduy",
        "country": "Bulgaria",
        "reactor_type": "2 VVER-1000",
        "electrical_power_MW": 2000,
        "lat": 43.7961,
        "lon": 23.7842
    },
    {
        "name": "Krško",
        "country": "Slovenia",
        "reactor_type": "PWR",
        "electrical_power_MW": 696,
        "lat": 45.9395,
        "lon": 15.5171
    },
    {
        "name": "Metsamor",
        "country": "Armenia",
        "reactor_type": "2 VVER-440",
        "electrical_power_MW": 800,
        "lat": 40.1807,
        "lon": 44.1477
    },
    {
        "name": "Leningrad",
        "country": "Russia",
        "reactor_type": "4 RBMK + 2 VVER-1200",
        "electrical_power_MW": 5500,
        "lat": 59.8317,
        "lon": 29.0731
    },
    {
        "name": "Kola",
        "country": "Russia",
        "reactor_type": "4 VVER-440",
        "electrical_power_MW": 1760,
        "lat": 67.4656,
        "lon": 32.4978
    },
    {
        "name": "Kalinin",
        "country": "Russia",
        "reactor_type": "4 VVER-1000",
        "electrical_power_MW": 4000,
        "lat": 57.9167,
        "lon": 36.7333
    },
    {
        "name": "Smolensk",
        "country": "Russia",
        "reactor_type": "3 RBMK",
        "electrical_power_MW": 3000,
        "lat": 54.1667,
        "lon": 33.2333
    },
    {
        "name": "Novovoronezh",
        "country": "Russia",
        "reactor_type": "2 VVER-440 + 2 VVER-1000 + 2 VVER-1200",
        "electrical_power_MW": 5760,
        "lat": 51.2833,
        "lon": 39.2167
    },
    {
        "name": "Zaporižžja",
        "country": "Ukraine",
        "reactor_type": "6 VVER-1000",
        "electrical_power_MW": 5700,
        "lat": 47.5083,
        "lon": 34.5864
    },
    {
        "name": "Rivne",
        "country": "Ukraine",
        "reactor_type": "4 VVER",
        "electrical_power_MW": 2835,
        "lat": 51.3167,
        "lon": 25.8833
    },
    {
        "name": "Hmelnytski",
        "country": "Ukraine",
        "reactor_type": "2 VVER-1000",
        "electrical_power_MW": 1900,
        "lat": 50.3,
        "lon": 26.65
    },
    {
        "name": "South Ukraine",
        "country": "Ukraine",
        "reactor_type": "3 VVER-1000",
        "electrical_power_MW": 2850,
        "lat": 47.8333,
        "lon": 31.2167
    },
    {
        "name": "Chernobyl (closed)",
        "country": "Ukraine",
        "reactor_type": "4 RBMK (closed)",
        "electrical_power_MW": 0,
        "lat": 51.3833,
        "lon": 30.0997
    },
    {
        "name": "Ignalina (closed)",
        "country": "Lithuania",
        "reactor_type": "2 RBMK (closed)",
        "electrical_power_MW": 0,
        "lat": 55.6,
        "lon": 26.5667
    },
    {
        "name": "Fukushima Daiichi (closed)",
        "country": "Japan",
        "reactor_type": "6 GE-BWR (closed)",
        "electrical_power_MW": 0,
        "lat": 37.4214,
        "lon": 141.0325
    },
    {
        "name": "Fukushima Daini",
        "country": "Japan",
        "reactor_type": "4 BWR",
        "electrical_power_MW": 4400,
        "lat": 37.3167,
        "lon": 141.0167
    }
]
